City_ID,City,Country,Date,Lat,Lng,Max Temp,Humidity,Cloudiness,Wind Speed,Current Description
0,Aklavik,CA,2022-04-10 13:43:47,68.2191,-135.0107,-17.12,98,85,2.33,overcast clouds
1,Rikitea,PF,2022-04-10 13:39:28,-23.1203,-134.9692,78.62,73,1,15.68,clear sky
2,Presque Isle,US,2022-04-10 13:43:47,46.6811,-68.0159,41.18,100,100,0.0,mist
3,Jamestown,US,2022-04-10 13:43:47,42.097,-79.2353,35.19,52,100,14.97,overcast clouds
4,Manaus,BR,2022-04-10 13:43:48,-3.1019,-60.025,82.89,78,40,2.3,scattered clouds
5,Vaini,TO,2022-04-10 13:41:10,-21.2,-175.2,77.16,94,40,5.75,scattered clouds
6,Bluff,NZ,2022-04-10 13:40:59,-46.6,168.3333,49.21,88,31,8.12,scattered clouds
7,Carnarvon,AU,2022-04-10 13:43:48,-24.8667,113.6333,71.67,68,0,17.27,clear sky
8,Kashin,RU,2022-04-10 13:43:49,57.3592,37.6081,49.93,58,100,6.42,overcast clouds
9,Kruisfontein,ZA,2022-04-10 13:43:49,-34.0033,24.7314,67.89,74,95,17.83,light rain
10,Lebu,CL,2022-04-10 13:43:49,-37.6167,-73.65,53.53,83,44,16.33,scattered clouds
11,Qui Nhon,VN,2022-04-10 13:43:50,13.7667,109.2333,74.03,92,18,6.42,few clouds
12,Chokurdakh,RU,2022-04-10 13:43:50,70.6333,147.9167,-18.36,100,100,3.13,overcast clouds
13,Margate,GB,2022-04-10 13:43:50,51.3813,1.3862,55.69,61,99,1.99,overcast clouds
14,Hermanus,ZA,2022-04-10 13:43:28,-34.4187,19.2345,81.81,41,0,12.57,clear sky
15,Codrington,AU,2022-04-10 13:43:51,-38.2667,141.9667,59.22,77,100,12.55,overcast clouds
16,Bambous Virieux,MU,2022-04-10 13:43:51,-20.3428,57.7575,80.85,74,40,11.5,light intensity shower rain
17,Albany,US,2022-04-10 13:42:06,42.6001,-73.9662,39.92,68,82,1.01,broken clouds
18,Longyearbyen,SJ,2022-04-10 13:43:29,78.2186,15.6401,15.64,48,0,27.63,clear sky
19,Ushuaia,AR,2022-04-10 13:43:51,-54.8,-68.3,42.46,65,0,8.05,clear sky
20,San Quintin,MX,2022-04-10 13:43:52,30.4833,-115.95,60.31,78,95,2.86,overcast clouds
21,Anuradhapura,LK,2022-04-10 13:43:52,8.3565,80.4173,76.3,94,100,4.88,light rain
22,Bredasdorp,ZA,2022-04-10 13:43:52,-34.5322,20.0403,72.14,61,0,19.86,clear sky
23,Sao Filipe,CV,2022-04-10 13:43:53,14.8961,-24.4956,74.68,69,20,15.37,few clouds
24,New Norfolk,AU,2022-04-10 13:43:53,-42.7826,147.0587,57.65,56,53,4.0,broken clouds
25,Paramonga,PE,2022-04-10 13:43:53,-10.6667,-77.8333,70.25,83,84,6.96,broken clouds
26,Mataura,NZ,2022-04-10 13:43:54,-46.1927,168.8643,43.21,99,20,2.46,few clouds
27,Matagami,CA,2022-04-10 13:43:54,49.7502,-77.6328,24.91,86,100,11.5,overcast clouds
28,Punta Arenas,CL,2022-04-10 13:40:55,-53.15,-70.9167,44.71,70,0,2.3,clear sky
29,Port Elizabeth,ZA,2022-04-10 13:42:15,-33.918,25.5701,70.11,85,75,14.97,broken clouds
30,Sao Joao Da Barra,BR,2022-04-10 13:43:54,-21.6403,-41.0511,80.69,76,36,6.31,scattered clouds
31,Hobart,AU,2022-04-10 13:42:13,-42.8794,147.3294,58.01,76,75,5.75,broken clouds
32,Marienburg,PL,2022-04-10 13:43:55,54.0359,19.0266,49.87,51,100,18.05,overcast clouds
33,Wana,PK,2022-04-10 13:43:55,32.2989,69.5725,81.27,9,13,5.5,few clouds
34,Barrow,US,2022-04-10 13:43:56,71.2906,-156.7887,-14.78,84,0,9.22,clear sky
35,Tuktoyaktuk,CA,2022-04-10 13:43:56,69.4541,-133.0374,-7.6,77,75,9.22,broken clouds
36,Katima Mulilo,NA,2022-04-10 13:43:56,-17.5,24.2667,75.07,69,100,7.43,light rain
37,Busselton,AU,2022-04-10 13:43:57,-33.65,115.3333,57.24,73,98,5.97,overcast clouds
38,Vila Franca Do Campo,PT,2022-04-10 13:43:57,37.7167,-25.4333,55.81,68,54,23.26,broken clouds
39,Hithadhoo,MV,2022-04-10 13:43:25,-0.6,73.0833,84.24,72,25,9.04,scattered clouds
40,Qaanaaq,GL,2022-04-10 13:43:57,77.484,-69.3632,-1.64,83,69,6.06,broken clouds
41,Evanton,GB,2022-04-10 13:43:58,57.6638,-4.34,49.66,61,100,4.94,overcast clouds
42,Belmonte,BR,2022-04-10 13:43:58,-15.8631,-38.8828,85.26,63,20,7.94,few clouds
43,Puerto Ayora,EC,2022-04-10 13:40:04,-0.7393,-90.3518,78.78,80,93,7.36,overcast clouds
44,Nanortalik,GL,2022-04-10 13:43:58,60.1432,-45.2371,32.02,71,100,2.64,overcast clouds
45,San Blas,MX,2022-04-10 13:43:59,21.5167,-105.2667,64.29,80,9,1.9,clear sky
46,Fairbanks,US,2022-04-10 13:40:49,64.8378,-147.7164,12.81,61,100,4.61,overcast clouds
47,Mercedes,AR,2022-04-10 13:42:21,-34.6515,-59.4307,77.04,56,0,10.92,clear sky
48,Ribeira Grande,PT,2022-04-10 13:43:59,38.5167,-28.7,55.8,76,40,26.46,scattered clouds
49,Dikson,RU,2022-04-10 13:43:59,73.5069,80.5464,-0.9,100,54,2.71,broken clouds
50,Mutata,CO,2022-04-10 13:44:00,7.2441,-76.4356,78.62,91,100,1.99,overcast clouds
51,Atuona,PF,2022-04-10 13:44:00,-9.8,-139.0333,78.75,75,11,17.58,few clouds
52,Maldonado,UY,2022-04-10 13:41:56,-34.6667,-54.9167,72.23,50,3,10.96,clear sky
53,Kalmunai,LK,2022-04-10 13:44:00,7.4167,81.8167,82.17,75,92,2.68,overcast clouds
54,Kavaratti,IN,2022-04-10 13:44:01,10.5669,72.642,83.79,76,100,10.11,overcast clouds
55,Katsuura,JP,2022-04-10 13:44:01,35.1333,140.3,61.57,88,17,10.83,few clouds
56,Mar Del Plata,AR,2022-04-10 13:39:10,-38.0023,-57.5575,68.02,96,75,8.99,broken clouds
57,Hervey Bay,AU,2022-04-10 13:42:15,-25.2986,152.8535,74.3,75,80,11.77,broken clouds
58,San Ramon,US,2022-04-10 13:39:05,37.7799,-121.978,55.62,43,0,5.75,clear sky
59,Georgetown,MY,2022-04-10 13:40:26,5.4112,100.3354,84.15,79,20,2.3,few clouds
60,Ilulissat,GL,2022-04-10 13:44:02,69.2167,-51.1,19.42,53,75,1.14,broken clouds
61,Cidreira,BR,2022-04-10 13:44:02,-30.1811,-50.2056,73.98,80,2,12.37,clear sky
62,Dingle,PH,2022-04-10 13:44:02,10.9995,122.6711,73.44,93,100,4.74,overcast clouds
63,Arraial Do Cabo,BR,2022-04-10 13:44:03,-22.9661,-42.0278,82.36,74,40,6.91,scattered clouds
64,Shihezi,CN,2022-04-10 13:44:03,44.3,86.0333,60.4,20,100,11.79,overcast clouds
65,Pisco,PE,2022-04-10 13:44:03,-13.7,-76.2167,67.01,89,100,4.21,overcast clouds
66,Takoradi,GH,2022-04-10 13:44:04,4.8845,-1.7554,86.13,66,74,9.44,broken clouds
67,Itacurubi Del Rosario,PY,2022-04-10 13:44:04,-24.5,-56.6833,86.41,58,24,8.5,few clouds
68,Tomaszow Mazowiecki,PL,2022-04-10 13:44:04,51.5313,20.0086,45.27,62,93,13.6,overcast clouds
69,Bengkulu,ID,2022-04-10 13:44:04,-3.8004,102.2655,78.94,81,100,3.13,moderate rain
70,Mudu,CN,2022-04-10 13:44:05,31.252,120.5118,64.71,77,6,6.73,clear sky
71,Saskylakh,RU,2022-04-10 13:44:05,71.9167,114.0833,-13.7,100,12,2.95,few clouds
72,Ancud,CL,2022-04-10 13:43:26,-41.8697,-73.8203,49.23,87,99,2.06,overcast clouds
73,Castro,BR,2022-04-10 13:44:05,-24.7911,-50.0119,70.97,71,100,4.25,overcast clouds
74,Padang,ID,2022-04-10 13:44:06,-0.9492,100.3543,84.25,87,100,2.53,moderate rain
75,Okha,RU,2022-04-10 13:44:06,53.5739,142.9478,17.42,92,74,4.83,broken clouds
76,Sinnamary,GF,2022-04-10 13:44:06,5.3833,-52.95,80.51,85,92,13.58,overcast clouds
77,Tiksi,RU,2022-04-10 13:44:07,71.6872,128.8694,-12.23,100,100,1.81,overcast clouds
78,Rocha,UY,2022-04-10 13:43:55,-34.4833,-54.3333,76.48,53,2,10.54,clear sky
79,Broken Hill,AU,2022-04-10 13:44:07,-31.95,141.4333,71.31,46,0,3.44,clear sky
80,Severo-Kurilsk,RU,2022-04-10 13:44:08,50.6789,156.125,30.43,85,100,15.64,light snow
81,Geraldton,AU,2022-04-10 13:44:08,-28.7667,114.6,61.21,82,40,4.61,scattered clouds
82,Nikolskoye,RU,2022-04-10 13:42:18,59.7035,30.7861,46.87,74,99,11.25,overcast clouds
83,Yashkul,RU,2022-04-10 13:44:08,46.1711,45.3435,69.08,28,2,9.06,clear sky
84,Torata,PE,2022-04-10 13:44:09,-17.0769,-70.8433,64.29,40,7,5.1,clear sky
85,Binzhou,CN,2022-04-10 13:44:09,37.3667,118.0167,76.8,39,0,12.44,clear sky
86,Ahuimanu,US,2022-04-10 13:44:09,21.4447,-157.8378,74.91,81,75,8.05,broken clouds
87,Moussoro,TD,2022-04-10 13:44:10,13.6408,16.4901,107.4,5,100,3.18,overcast clouds
88,Williston,US,2022-04-10 13:44:10,48.147,-103.618,32.74,52,4,7.29,clear sky
89,Suslovo,RU,2022-04-10 13:44:10,56.2167,88.1167,26.06,83,100,6.62,overcast clouds
90,Bud,US,2022-04-10 13:44:11,39.447,-86.1758,48.88,64,3,7.78,clear sky
91,Kaitangata,NZ,2022-04-10 13:44:11,-46.2817,169.8464,46.29,93,12,2.66,few clouds
92,Roebourne,AU,2022-04-10 13:44:11,-20.7833,117.1333,86.92,31,13,11.23,few clouds
93,Torbay,CA,2022-04-10 13:44:12,47.6666,-52.7314,42.28,95,100,16.11,overcast clouds
94,Tautira,PF,2022-04-10 13:44:12,-17.7333,-149.15,80.22,79,45,15.23,light rain
95,Pinawa,CA,2022-04-10 13:44:12,50.1489,-95.8811,36.27,86,88,3.67,overcast clouds
96,Provideniya,RU,2022-04-10 13:44:13,64.3833,-173.3,23.61,98,99,7.94,overcast clouds
97,Avarua,CK,2022-04-10 13:44:13,-21.2078,-159.775,77.05,100,40,2.3,scattered clouds
98,Coquimbo,CL,2022-04-10 13:44:13,-29.9533,-71.3436,55.13,94,100,3.44,overcast clouds
99,Galdar,ES,2022-04-10 13:44:14,28.147,-15.6502,67.35,71,37,8.32,scattered clouds
100,Zaraza,VE,2022-04-10 13:44:14,9.3503,-65.3245,88.88,43,42,9.08,scattered clouds
101,Buin,CL,2022-04-10 13:44:14,-33.7333,-70.75,64.06,55,0,3.69,clear sky
102,Norman Wells,CA,2022-04-10 13:44:14,65.282,-126.8329,6.84,72,75,11.5,broken clouds
103,Cape Town,ZA,2022-04-10 13:44:15,-33.9258,18.4232,84.11,33,0,11.5,clear sky
104,Laramie,US,2022-04-10 13:44:15,41.3114,-105.5911,28.96,41,0,24.16,clear sky
105,Mastic Beach,US,2022-04-10 13:44:15,40.7668,-72.8521,49.12,61,100,12.66,overcast clouds
106,Narsaq,GL,2022-04-10 13:44:16,60.9167,-46.05,34.02,41,100,1.54,overcast clouds
107,Haapsalu,EE,2022-04-10 13:44:16,58.9431,23.5414,45.99,58,78,14.63,broken clouds
108,Qujing,CN,2022-04-10 13:44:16,25.4833,103.7833,59.23,72,19,4.54,few clouds
109,Boa Vista,BR,2022-04-10 13:42:15,2.8197,-60.6733,82.38,65,40,14.97,scattered clouds
110,Port Augusta,AU,2022-04-10 13:44:17,-32.5,137.7667,66.9,87,6,12.37,clear sky
111,Monterey,US,2022-04-10 13:40:54,36.2505,-121.2516,42.17,1,16,8.05,few clouds
112,Upernavik,GL,2022-04-10 13:44:17,72.7868,-56.1549,2.8,74,47,6.26,scattered clouds
113,Whitehorse,CA,2022-04-10 13:44:18,60.7161,-135.0538,13.1,62,40,9.22,scattered clouds
114,Ankazobe,MG,2022-04-10 13:44:18,-18.3167,47.1167,69.6,70,10,11.65,clear sky
115,Yellowknife,CA,2022-04-10 13:42:44,62.456,-114.3525,7.41,83,40,13.8,scattered clouds
116,Maxixe,MZ,2022-04-10 13:41:17,-23.8597,35.3472,76.82,94,75,6.91,drizzle
117,Alofi,NU,2022-04-10 13:44:18,-19.0595,-169.9187,75.09,94,2,0.0,clear sky
118,Lasa,IT,2022-04-10 13:44:19,46.6166,10.7002,52.7,56,65,6.26,broken clouds
119,Adrar,MR,2022-04-10 13:44:19,20.5022,-10.0711,97.99,4,0,6.67,clear sky
120,Kulhudhuffushi,MV,2022-04-10 13:44:19,6.6221,73.07,85.33,69,92,11.92,overcast clouds
121,Souillac,MU,2022-04-10 13:44:19,-20.5167,57.5167,80.98,74,40,11.5,light intensity shower rain
122,Mitsamiouli,KM,2022-04-10 13:44:20,-11.3847,43.2844,83.32,72,52,2.77,broken clouds
123,Kodiak,US,2022-04-10 13:44:20,57.79,-152.4072,33.31,40,0,12.66,clear sky
124,Olafsvik,IS,2022-04-10 13:44:20,64.8945,-23.7142,37.83,89,100,22.68,overcast clouds
125,Nara,JP,2022-04-10 13:44:21,34.6851,135.8049,65.52,52,100,0.47,overcast clouds
126,Berlevag,NO,2022-04-10 13:44:21,70.8578,29.0864,39.2,80,3,17.36,clear sky
127,Amapa,BR,2022-04-10 13:44:21,1.0,-52.0,77.16,95,100,4.34,overcast clouds
128,Guru Har Sahai,IN,2022-04-10 13:44:22,30.7167,74.4167,93.42,7,0,3.65,clear sky
129,Okato,NZ,2022-04-10 13:44:22,-39.2,173.8833,52.92,88,6,3.42,clear sky
130,Hualmay,PE,2022-04-10 13:44:23,-11.0964,-77.6139,70.95,80,65,7.67,broken clouds
131,Flinders,AU,2022-04-10 13:44:23,-34.5833,150.8552,66.38,89,1,5.99,clear sky
132,Embrach,CH,2022-04-10 13:44:23,47.5056,8.5941,55.89,41,40,5.75,scattered clouds
133,Asfi,MA,2022-04-10 13:44:24,32.2994,-9.2372,64.38,77,100,10.4,overcast clouds
134,Vila Velha,BR,2022-04-10 13:40:42,-20.3297,-40.2925,82.35,78,75,11.5,broken clouds
135,Govindgarh,IN,2022-04-10 13:44:24,27.5,76.9833,96.57,7,4,8.63,clear sky
136,Motygino,RU,2022-04-10 13:44:24,58.1831,94.7592,26.33,96,100,9.37,light snow
137,Hot Springs,US,2022-04-10 13:40:23,34.5037,-93.0552,62.4,85,2,5.99,clear sky
138,Hilo,US,2022-04-10 13:41:04,19.7297,-155.09,71.26,93,100,6.91,overcast clouds
139,Pringsewu,ID,2022-04-10 13:44:25,-5.3582,104.9744,75.42,88,75,6.44,broken clouds
140,Ust-Omchug,RU,2022-04-10 13:44:25,61.15,149.6333,-17.01,99,79,3.71,broken clouds
141,Blackpool,GB,2022-04-10 13:44:25,53.8167,-3.05,56.34,50,20,6.91,few clouds
142,Dagda,LV,2022-04-10 13:44:26,56.0951,27.5372,45.14,51,63,11.81,broken clouds
143,Kedrovyy,RU,2022-04-10 13:44:26,56.1667,91.8167,28.87,90,100,6.51,light snow
144,Guerrero Negro,MX,2022-04-10 13:44:26,27.9769,-114.0611,60.53,90,37,1.99,scattered clouds
145,Batemans Bay,AU,2022-04-10 13:44:27,-35.7167,150.1833,67.1,87,5,4.36,clear sky
146,Krasnyy Chikoy,RU,2022-04-10 13:44:27,50.3643,108.7512,28.42,81,100,3.94,overcast clouds
147,Morant Bay,JM,2022-04-10 13:44:28,17.8815,-76.4093,83.71,67,80,5.06,broken clouds
148,Omboue,GA,2022-04-10 13:44:28,-1.5746,9.2618,82.85,71,100,8.34,overcast clouds
149,Tura,IN,2022-04-10 13:44:28,25.5198,90.2201,72.97,84,0,5.41,clear sky
150,Port Alfred,ZA,2022-04-10 13:40:27,-33.5906,26.891,66.18,89,100,5.01,overcast clouds
151,Makakilo City,US,2022-04-10 13:44:29,21.3469,-158.0858,73.72,75,100,8.05,overcast clouds
152,Ewa Beach,US,2022-04-10 13:44:29,21.3156,-158.0072,75.15,76,100,8.05,overcast clouds
153,Sunggal,ID,2022-04-10 13:44:30,3.5765,98.6151,80.58,88,40,5.75,scattered clouds
154,Beyneu,KZ,2022-04-10 13:44:30,45.3167,55.2,66.61,38,28,12.71,scattered clouds
155,Sitka,US,2022-04-10 13:42:13,57.0531,-135.33,31.89,80,0,4.61,clear sky
156,Port Blair,IN,2022-04-10 13:44:30,11.6667,92.75,84.24,74,40,2.3,haze
157,Omsukchan,RU,2022-04-10 13:44:31,62.5333,155.8,-19.5,100,78,4.88,broken clouds
158,Malanje,AO,2022-04-10 13:44:31,-9.5402,16.341,70.09,87,100,1.48,overcast clouds
159,Touros,BR,2022-04-10 13:42:40,-5.1989,-35.4608,85.95,66,62,14.79,broken clouds
160,Kapaa,US,2022-04-10 13:44:31,22.0752,-159.319,73.11,95,100,17.27,mist
161,Mount Isa,AU,2022-04-10 13:44:32,-20.7333,139.5,87.57,27,75,5.75,broken clouds
162,De Aar,ZA,2022-04-10 13:44:32,-30.6497,24.0123,56.34,78,100,10.11,light rain
163,Luanda,AO,2022-04-10 13:44:32,-8.8368,13.2343,82.13,73,88,9.51,light rain
164,Gizo,SB,2022-04-10 13:44:33,-8.103,156.8419,82.54,73,87,4.65,light rain
165,Mayumba,GA,2022-04-10 13:44:33,-3.432,10.6554,81.73,77,99,5.99,overcast clouds
166,Baruun-Urt,MN,2022-04-10 13:44:33,46.6806,113.2792,40.69,28,100,21.39,overcast clouds
167,Mumford,GH,2022-04-10 13:44:34,5.2618,-0.759,85.24,68,66,12.68,broken clouds
168,Sola,VU,2022-04-10 13:44:34,-13.8833,167.55,81.72,78,61,10.0,broken clouds
169,Lata,PT,2022-04-10 13:44:34,40.1629,-8.3327,73.49,40,8,15.66,clear sky
170,Jha Jha,IN,2022-04-10 13:44:35,24.7667,86.3667,90.91,16,0,6.93,clear sky
171,Araripina,BR,2022-04-10 13:44:35,-7.5761,-40.4983,84.18,59,97,7.63,overcast clouds
172,Monteagudo,BO,2022-04-10 13:44:35,-19.8167,-63.9833,80.22,55,25,4.21,scattered clouds
173,Talcahuano,CL,2022-04-10 13:44:36,-36.7167,-73.1167,55.08,76,40,10.36,scattered clouds
174,Kupang,ID,2022-04-10 13:44:36,-10.1667,123.5833,77.56,84,6,6.58,clear sky
175,Saint-Philippe,RE,2022-04-10 13:44:36,-21.3585,55.7679,80.19,83,54,14.72,light rain
176,Buraydah,SA,2022-04-10 13:44:36,26.326,43.975,91.85,8,70,8.61,broken clouds
177,Viedma,AR,2022-04-10 13:44:37,-40.8135,-62.9967,63.9,48,100,2.1,overcast clouds
178,Hammerfest,NO,2022-04-10 13:44:37,70.6634,23.6821,37.85,65,20,10.36,few clouds
179,Elesbao Veloso,BR,2022-04-10 13:44:37,-6.2019,-42.1403,85.8,66,41,1.97,scattered clouds
180,Bogorodskoye,RU,2022-04-10 13:44:38,56.55,37.8833,45.75,67,100,2.57,overcast clouds
181,Conde,BR,2022-04-10 13:44:38,-7.2597,-34.9075,83.66,79,75,8.05,broken clouds
182,Farah,AF,2022-04-10 13:44:38,32.5,62.5,86.31,6,100,6.17,overcast clouds
183,Ca Mau,VN,2022-04-10 13:44:39,9.1769,105.15,78.39,88,80,4.38,broken clouds
184,Beira,MZ,2022-04-10 13:44:39,-19.8436,34.8389,78.89,83,75,7.0,broken clouds
185,Hofn,IS,2022-04-10 13:44:40,64.2539,-15.2082,37.42,52,75,3.44,broken clouds
186,Kaoma,ZM,2022-04-10 13:44:40,-14.7833,24.8,66.78,94,100,3.47,overcast clouds
187,Pokhara,NP,2022-04-10 13:40:41,28.2333,83.9833,70.66,63,68,4.56,broken clouds
188,Urengoy,RU,2022-04-10 13:44:40,65.9667,78.3667,19.63,94,100,9.48,overcast clouds
189,Pevek,RU,2022-04-10 13:44:41,69.7008,170.3133,-14.37,97,100,3.83,overcast clouds
190,Deputatskiy,RU,2022-04-10 13:44:41,69.3,139.9,-13.54,92,62,2.59,broken clouds
191,Turayf,SA,2022-04-10 13:44:41,31.6725,38.6637,88.05,13,0,13.8,clear sky
192,Alice Springs,AU,2022-04-10 13:40:13,-23.7,133.8833,69.22,32,90,0.0,overcast clouds
193,Dawlatabad,AF,2022-04-10 13:44:42,36.4141,64.9053,86.85,22,100,5.75,overcast clouds
194,Pacific Grove,US,2022-04-10 13:44:42,36.6177,-121.9166,55.69,88,0,3.44,clear sky
195,Cherskiy,RU,2022-04-10 13:43:27,68.75,161.3,-13.14,99,100,2.55,overcast clouds
196,Azul,AR,2022-04-10 13:44:43,-36.777,-59.8585,71.65,64,68,9.35,broken clouds
197,Altay,CN,2022-04-10 13:44:43,47.8667,88.1167,37.13,46,74,7.36,broken clouds
198,Khatanga,RU,2022-04-10 13:44:43,71.9667,102.5,6.57,97,100,4.05,overcast clouds
199,Palmas,BR,2022-04-10 13:42:30,-10.2128,-48.3603,84.07,70,20,6.91,few clouds
200,Nantucket,US,2022-04-10 13:44:24,41.2835,-70.0995,48.34,66,0,14.97,clear sky
201,Paka,MY,2022-04-10 13:44:44,4.6374,103.4368,80.53,94,18,0.0,few clouds
202,Yermakovskoye,RU,2022-04-10 13:44:44,53.2831,92.4003,33.89,80,100,5.5,overcast clouds
203,Lavrentiya,RU,2022-04-10 13:44:44,65.5833,-171.0,23.54,96,98,9.53,overcast clouds
204,Sao Geraldo Do Araguaia,BR,2022-04-10 13:44:45,-6.4006,-48.555,82.22,77,100,3.15,overcast clouds
205,Victoria,HK,2022-04-10 13:44:45,22.2855,114.1577,76.32,73,0,5.99,clear sky
206,Salcininkai,LT,2022-04-10 13:44:45,54.3,25.3833,48.83,48,85,14.07,overcast clouds
207,Wilmington,US,2022-04-10 13:44:46,34.2257,-77.9447,52.0,49,0,12.66,clear sky
208,Dali,CN,2022-04-10 13:44:46,25.7,100.1833,59.85,65,13,5.93,few clouds
209,Aloleng,PH,2022-04-10 13:44:46,16.1307,119.7824,81.3,79,100,4.63,overcast clouds
210,Kavieng,PG,2022-04-10 13:44:47,-2.5744,150.7967,82.35,76,100,11.72,overcast clouds
211,Aleksandrovskiy Zavod,RU,2022-04-10 13:44:47,50.9237,117.9374,19.49,92,14,3.38,few clouds
212,Atengo,MX,2022-04-10 13:44:47,20.1667,-99.3333,63.97,53,11,3.44,few clouds
213,Vardo,NO,2022-04-10 13:44:48,70.3705,31.1107,36.43,85,52,19.06,broken clouds
214,Coahuayana,MX,2022-04-10 13:44:48,18.7333,-103.6833,79.21,50,42,1.25,scattered clouds
215,Visby,SE,2022-04-10 13:42:02,57.6409,18.296,49.05,53,0,10.36,clear sky
216,Pali,IN,2022-04-10 13:44:31,25.7667,73.3333,94.84,10,3,7.49,clear sky
217,Portland,US,2022-04-10 13:40:32,45.5234,-122.6762,41.74,88,100,7.0,overcast clouds
218,Gat,IL,2022-04-10 13:44:49,31.61,34.7642,82.4,41,0,13.82,clear sky
219,Timra,SE,2022-04-10 13:44:49,62.487,17.3257,42.48,70,100,12.66,overcast clouds
220,Ixtapa,MX,2022-04-10 13:44:49,20.7,-105.2,71.22,92,1,1.43,clear sky
221,Henties Bay,NA,2022-04-10 13:44:50,-22.116,14.2845,68.34,61,1,9.82,clear sky
222,Talnakh,RU,2022-04-10 13:44:50,69.4865,88.3972,2.21,99,97,1.14,overcast clouds
223,Lubango,AO,2022-04-10 13:44:50,-14.9172,13.4925,78.66,34,75,0.0,broken clouds
224,Butaritari,KI,2022-04-10 13:44:50,3.0707,172.7902,80.04,78,100,8.86,moderate rain
225,East London,ZA,2022-04-10 13:42:43,-33.0153,27.9116,70.74,83,20,11.5,few clouds
226,Itaituba,BR,2022-04-10 13:44:51,-4.2761,-55.9836,75.36,100,100,0.0,heavy intensity rain
227,Bonavista,CA,2022-04-10 13:44:51,48.6499,-53.1147,35.96,95,100,10.31,overcast clouds
228,Crotone,IT,2022-04-10 13:44:51,39.0851,17.1178,58.95,54,40,14.97,scattered clouds
229,Funadhoo,MV,2022-04-10 13:44:52,6.15,73.2667,85.64,69,74,13.24,broken clouds
230,Dunedin,NZ,2022-04-10 13:40:33,-45.8742,170.5036,53.8,83,6,1.99,clear sky
231,Bhatkal,IN,2022-04-10 13:44:52,13.9667,74.5667,83.59,77,97,7.36,overcast clouds
232,Libertador General San Martin,AR,2022-04-10 13:44:52,-23.8064,-64.7876,73.98,82,88,2.19,overcast clouds
233,Green River,US,2022-04-10 13:44:53,41.5286,-109.4662,27.99,38,35,11.99,scattered clouds
234,Vilhena,BR,2022-04-10 13:44:53,-12.7406,-60.1458,80.82,78,20,8.05,few clouds
235,Hovd,MN,2022-04-10 13:44:54,48.0056,91.6419,31.32,38,2,9.69,clear sky
236,Phalaborwa,ZA,2022-04-10 13:44:54,-23.943,31.1411,76.59,50,100,10.98,overcast clouds
237,Gilgit,PK,2022-04-10 13:44:54,35.9221,74.3087,69.3,36,8,3.0,clear sky
238,Faya,SA,2022-04-10 13:44:55,18.3851,42.4509,80.71,30,0,12.46,clear sky
239,Kibala,TD,2022-04-10 13:44:55,9.1104,18.3463,91.35,46,20,4.61,few clouds
240,Lorengau,PG,2022-04-10 13:44:55,-2.0226,147.2712,81.03,82,99,9.82,overcast clouds
241,Sisimiut,GL,2022-04-10 13:44:56,66.9395,-53.6735,24.33,63,100,1.72,overcast clouds
242,Tasiilaq,GL,2022-04-10 13:44:56,65.6145,-37.6368,24.96,72,72,2.15,broken clouds
243,Ocseny,HU,2022-04-10 13:44:56,46.3137,18.7575,51.96,39,95,19.37,overcast clouds
244,Pierre,US,2022-04-10 13:44:57,44.3683,-100.351,47.05,58,100,15.01,overcast clouds
245,Tottori,JP,2022-04-10 13:44:57,35.5,134.2333,59.47,67,100,5.64,overcast clouds
246,Paamiut,GL,2022-04-10 13:44:57,61.994,-49.6678,32.4,72,100,8.93,overcast clouds
247,Ruteng,ID,2022-04-10 13:44:58,-8.6136,120.4721,60.82,87,100,1.57,overcast clouds
248,Klaksvik,FO,2022-04-10 13:44:58,62.2266,-6.589,36.52,60,99,11.43,overcast clouds
249,Adre,TD,2022-04-10 13:44:58,13.4667,22.2,100.51,13,51,11.14,broken clouds
250,Havre-Saint-Pierre,CA,2022-04-10 13:44:59,50.2334,-63.5986,34.16,100,100,4.61,overcast clouds
251,Egvekinot,RU,2022-04-10 13:43:35,66.3167,-179.1667,20.79,98,100,8.3,light snow
252,Eichstatt,DE,2022-04-10 13:44:59,48.8833,11.1833,48.49,49,40,17.27,scattered clouds
253,Puerto Colombia,CO,2022-04-10 13:44:59,10.9878,-74.9547,84.29,72,100,20.49,overcast clouds
254,Vysokogornyy,RU,2022-04-10 13:45:00,50.1167,139.15,27.52,95,100,6.44,overcast clouds
255,Xingyi,CN,2022-04-10 13:45:00,24.1877,102.817,61.05,69,70,5.12,broken clouds
256,Sangod,IN,2022-04-10 13:45:00,24.9167,76.2833,98.35,12,1,9.93,clear sky
257,Silver City,US,2022-04-10 13:45:01,32.7701,-108.2803,54.66,34,0,15.01,clear sky
258,Brookings,US,2022-04-10 13:42:00,44.3114,-96.7984,44.06,64,0,5.75,clear sky
259,Chuy,UY,2022-04-10 13:45:01,-33.6971,-53.4616,75.07,63,5,10.38,clear sky
260,Ndende,GA,2022-04-10 13:45:01,-2.4008,11.3581,86.63,64,94,1.21,overcast clouds
261,Bilibino,RU,2022-04-10 13:45:02,68.0546,166.4372,-18.76,100,100,0.96,overcast clouds
262,Laurel,US,2022-04-10 13:41:46,39.0993,-76.8483,46.74,64,75,16.11,broken clouds
263,Jalu,LY,2022-04-10 13:45:02,29.0331,21.5482,86.86,12,0,12.12,clear sky
264,Dukat,RU,2022-04-10 13:45:03,62.55,155.55,-20.06,100,89,4.65,overcast clouds
265,Taoudenni,ML,2022-04-10 13:45:03,22.6783,-3.9836,94.08,4,0,10.33,clear sky
266,Mindelo,CV,2022-04-10 13:45:03,16.8901,-24.9804,76.55,53,20,25.32,few clouds
267,Kahului,US,2022-04-10 13:45:04,20.8947,-156.47,74.84,75,0,8.05,clear sky
268,Zhezkazgan,KZ,2022-04-10 13:45:04,47.8043,67.7144,60.78,31,40,20.13,light rain
269,Caiaponia,BR,2022-04-10 13:45:04,-16.9567,-51.8103,84.22,54,19,0.38,few clouds
270,Wanning,CN,2022-04-10 13:45:05,18.8003,110.3967,72.82,89,8,3.85,clear sky
271,Mahebourg,MU,2022-04-10 13:45:05,-20.4081,57.7,80.89,74,40,11.5,light intensity shower rain
272,Bardiyah,LY,2022-04-10 13:45:05,31.7561,25.0865,68.83,47,0,8.86,clear sky
273,Bilma,NE,2022-04-10 13:45:05,18.6853,12.9164,105.78,3,0,2.51,clear sky
274,Najran,SA,2022-04-10 13:45:06,17.4924,44.1277,93.85,12,0,16.64,clear sky
275,Bridlington,GB,2022-04-10 13:45:06,54.0831,-0.1919,54.14,63,89,8.01,overcast clouds
276,Loandjili,CG,2022-04-10 13:45:06,-4.7561,11.8578,83.14,73,100,7.87,overcast clouds
277,Lanzhou,CN,2022-04-10 13:45:07,36.0564,103.7922,69.01,12,13,7.92,few clouds
278,Naze,JP,2022-04-10 13:45:07,28.3667,129.4833,67.12,93,85,11.39,overcast clouds
279,Praya,CV,2022-04-10 13:45:07,14.9215,-23.5087,77.54,57,20,24.16,few clouds
280,Amahai,ID,2022-04-10 13:45:08,-3.3333,128.9167,78.49,85,84,0.87,broken clouds
281,Ushtobe,KZ,2022-04-10 13:45:08,45.2514,77.9838,59.77,26,80,19.55,broken clouds
282,Loukhi,RU,2022-04-10 13:45:08,66.0764,33.0381,33.26,100,100,6.87,overcast clouds
283,Ternate,ID,2022-04-10 13:45:09,0.8,127.4,82.2,78,100,8.66,light rain
284,Ponta Do Sol,PT,2022-04-10 13:45:09,32.6667,-17.1,68.72,74,71,13.29,broken clouds
285,Pingliang,CN,2022-04-10 13:45:09,35.5392,106.6861,66.31,44,0,9.37,clear sky
286,Mogadishu,SO,2022-04-10 13:45:10,2.0371,45.3438,83.55,67,69,12.66,broken clouds
287,Saint George,US,2022-04-10 13:41:01,37.1041,-113.5841,52.39,17,0,8.01,clear sky
288,Bethel,US,2022-04-10 13:42:17,41.3712,-73.414,46.54,68,75,13.8,broken clouds
289,Naryan-Mar,RU,2022-04-10 13:45:10,67.6713,53.087,35.29,100,100,11.68,overcast clouds
290,Tokomaru,NZ,2022-04-10 13:45:10,-40.4667,175.5,54.09,94,89,1.79,overcast clouds
291,Alcacer Do Sal,PT,2022-04-10 13:45:11,38.3733,-8.5144,75.02,35,4,12.1,clear sky
292,Fare,PF,2022-04-10 13:45:11,-16.7,-151.0167,81.9,74,2,15.75,clear sky
293,Airai,TL,2022-04-10 13:45:11,-8.9266,125.4092,58.95,86,12,2.1,few clouds
294,Vostok,RU,2022-04-10 13:45:12,46.4856,135.8833,33.58,95,100,4.88,snow
295,Araouane,ML,2022-04-10 13:45:12,18.9048,-3.5265,100.04,4,0,10.45,clear sky
296,Ngorongoro,TZ,2022-04-10 13:45:12,-3.2397,35.4875,66.87,48,100,8.5,overcast clouds
297,Mecca,SA,2022-04-10 13:41:40,21.4267,39.8261,95.47,17,0,12.86,clear sky
298,Togur,RU,2022-04-10 13:45:13,58.3631,82.8265,16.09,92,49,5.7,scattered clouds
299,Cayenne,GF,2022-04-10 13:45:13,4.9333,-52.3333,83.08,1,75,13.8,broken clouds
300,Ambon,ID,2022-04-10 13:45:13,-3.6954,128.1814,77.14,94,20,2.3,few clouds
301,Husavik,IS,2022-04-10 13:45:14,66.0449,-17.3389,33.55,71,96,5.3,overcast clouds
302,Sorland,NO,2022-04-10 13:45:14,67.667,12.6934,39.06,81,75,18.41,broken clouds
303,Nome,US,2022-04-10 13:45:14,64.5011,-165.4064,28.47,93,100,9.22,overcast clouds
304,Moosomin,CA,2022-04-10 13:45:15,50.1333,-101.6677,37.9,63,22,8.84,few clouds
305,Grand Gaube,MU,2022-04-10 13:45:15,-20.0064,57.6608,81.0,84,43,4.0,light rain
306,Boali,CF,2022-04-10 13:45:15,4.8005,18.1275,86.23,50,99,4.65,overcast clouds
307,Amboasary,MG,2022-04-10 13:45:16,-25.0333,46.3833,77.88,75,98,16.04,overcast clouds
308,Labuhan,ID,2022-04-10 13:45:16,-6.8844,112.2051,80.62,77,98,3.56,overcast clouds
309,Ahipara,NZ,2022-04-10 13:45:16,-35.1667,173.1667,57.69,85,17,5.79,few clouds
310,La Brea,HN,2022-04-10 13:45:17,15.8,-85.9667,76.51,73,75,3.44,broken clouds
311,San Luis,AR,2022-04-10 13:40:48,-33.295,-66.3356,64.11,73,80,6.2,broken clouds
312,Mao,ES,2022-04-10 13:44:35,39.8885,4.2658,61.36,48,0,8.05,clear sky
313,Namibe,AO,2022-04-10 13:42:21,-15.1961,12.1522,75.94,71,63,10.18,broken clouds
314,Constantine,DZ,2022-04-10 13:45:17,36.365,6.6147,67.41,32,20,6.91,few clouds
315,Bethanien,NA,2022-04-10 13:45:17,-26.502,17.1583,80.96,20,0,5.5,clear sky
316,Dzaoudzi,YT,2022-04-10 13:45:18,-12.7887,45.2699,89.49,66,40,6.91,scattered clouds
317,Alto Araguaia,BR,2022-04-10 13:45:18,-17.3147,-53.2153,82.11,63,6,3.31,clear sky
318,Axim,GH,2022-04-10 13:45:18,4.8699,-2.2405,87.3,64,83,8.72,broken clouds
319,Akyab,MM,2022-04-10 13:45:19,20.15,92.9,82.56,78,0,6.91,clear sky
320,Karratha,AU,2022-04-10 13:45:19,-20.7377,116.8463,86.74,31,13,10.85,few clouds
321,Sumenep,ID,2022-04-10 13:45:19,-7.0167,113.8667,79.9,76,4,3.36,clear sky
322,Tolaga Bay,NZ,2022-04-10 13:45:20,-38.3667,178.3,54.77,87,2,3.69,clear sky
323,Port-Gentil,GA,2022-04-10 13:45:20,-0.7193,8.7815,80.24,79,100,8.41,overcast clouds
324,Matara,LK,2022-04-10 13:45:20,5.9485,80.5353,80.11,80,92,9.82,overcast clouds
325,Pentecoste,BR,2022-04-10 13:45:21,-3.7928,-39.2703,81.84,82,42,4.81,scattered clouds
326,Thompson,CA,2022-04-10 13:41:04,55.7435,-97.8558,32.16,100,100,4.61,mist
327,Okhotsk,RU,2022-04-10 13:45:21,59.3833,143.3,23.13,88,100,8.37,overcast clouds
328,Sorata,BO,2022-04-10 13:45:21,-15.7667,-68.6333,54.41,61,65,4.79,broken clouds
329,Robertsport,LR,2022-04-10 13:45:22,6.7533,-11.3686,82.42,78,71,8.84,broken clouds
330,Palmer,US,2022-04-10 13:45:22,42.1584,-72.3287,47.62,60,75,12.66,broken clouds
331,Neiafu,TO,2022-04-10 13:45:22,-18.65,-173.9833,72.28,94,20,0.0,few clouds
332,Bushehr,IR,2022-04-10 13:45:23,28.9684,50.8385,78.89,57,0,11.5,dust
333,Tuatapere,NZ,2022-04-10 13:45:23,-46.1333,167.6833,44.65,92,4,5.23,clear sky
334,Dakar,SN,2022-04-10 13:43:28,14.6937,-17.4441,86.88,69,0,18.41,clear sky
335,Vanimo,PG,2022-04-10 13:45:23,-2.6741,141.3028,78.1,87,96,5.64,overcast clouds
336,Iqaluit,CA,2022-04-10 13:45:24,63.7506,-68.5145,24.53,79,100,3.44,light snow
337,Dolinsk,RU,2022-04-10 13:45:24,47.35,142.8,31.35,95,100,8.81,light snow
338,Kamina,CD,2022-04-10 13:45:24,-8.7386,24.9906,80.94,56,100,5.44,overcast clouds
339,Grimshaw,CA,2022-04-10 13:45:25,56.1834,-117.6027,25.16,58,20,20.71,few clouds
340,Korla,CN,2022-04-10 13:45:25,41.7597,86.1469,63.57,46,100,5.68,overcast clouds
341,Gushikawa,JP,2022-04-10 13:43:35,26.3544,127.8686,72.99,91,20,12.66,few clouds
342,Upington,ZA,2022-04-10 13:45:25,-28.4478,21.2561,71.98,46,75,5.75,broken clouds
343,Muzaffargarh,PK,2022-04-10 13:45:26,30.0754,71.1921,104.02,5,0,6.55,clear sky
344,Caravelas,BR,2022-04-10 13:44:44,-17.7125,-39.2481,87.69,54,2,7.76,clear sky
345,Saint-Augustin,CA,2022-04-10 13:45:26,51.226,-58.6502,35.6,100,100,0.67,overcast clouds
346,Grindavik,IS,2022-04-10 13:45:26,63.8424,-22.4338,42.75,75,75,29.93,broken clouds
347,Moose Factory,CA,2022-04-10 13:45:27,51.2585,-80.6094,24.8,86,100,5.75,overcast clouds
348,Matamoros,MX,2022-04-10 13:45:27,25.5333,-103.25,69.51,41,3,3.8,clear sky
349,Mayo,US,2022-04-10 13:43:09,38.8876,-76.5119,47.55,64,100,12.66,overcast clouds
350,Toguchin,RU,2022-04-10 13:45:27,55.2353,84.3858,21.99,92,97,4.21,overcast clouds
351,Chicama,PE,2022-04-10 13:45:28,-7.8447,-79.1469,72.97,76,94,5.79,overcast clouds
352,Mitu,CO,2022-04-10 13:45:28,1.1983,-70.1733,73.38,98,100,0.43,overcast clouds
353,Nakhon Phanom,TH,2022-04-10 13:45:28,17.3333,104.4167,78.6,38,0,3.29,clear sky
354,Antofagasta,CL,2022-04-10 13:45:29,-23.65,-70.4,61.88,65,26,7.38,scattered clouds
355,Marrakesh,MA,2022-04-10 13:45:29,31.6315,-8.0083,87.87,18,20,8.05,few clouds
356,Haines Junction,CA,2022-04-10 13:45:29,60.7522,-137.5108,17.55,45,97,8.05,overcast clouds
357,Esperance,AU,2022-04-10 13:44:49,-33.8667,121.9,62.44,78,11,15.64,few clouds
358,Charleston,US,2022-04-10 13:43:57,32.7766,-79.9309,57.22,47,0,3.44,clear sky
359,Turukhansk,RU,2022-04-10 13:45:30,65.8167,87.9833,2.01,96,92,3.78,overcast clouds
360,Ha Giang,VN,2022-04-10 13:45:30,22.8333,104.9833,73.83,66,15,2.04,few clouds
361,Mapiripan,CO,2022-04-10 13:45:30,2.8892,-72.1256,78.75,84,100,2.62,overcast clouds
362,Chimbote,PE,2022-04-10 13:45:31,-9.0853,-78.5783,69.89,83,51,6.91,broken clouds
363,Panguna,PG,2022-04-10 13:45:31,-6.3164,155.4848,67.77,95,92,1.68,overcast clouds
364,Itoman,JP,2022-04-10 13:45:31,26.1247,127.6694,73.78,92,75,12.66,broken clouds
365,Honningsvag,NO,2022-04-10 13:45:32,70.9821,25.9704,38.95,70,75,16.11,broken clouds
366,Faanui,PF,2022-04-10 13:43:37,-16.4833,-151.75,82.0,73,25,15.66,scattered clouds
367,Bathsheba,BB,2022-04-10 13:45:32,13.2167,-59.5167,83.01,69,40,18.41,scattered clouds
368,Panaba,MX,2022-04-10 13:45:32,21.2833,-88.2667,75.87,46,5,12.28,clear sky
369,Mount Holly,US,2022-04-10 13:45:33,35.2982,-81.0159,50.14,57,0,3.44,clear sky
370,Chirongui,YT,2022-04-10 13:45:33,-12.9319,45.1483,89.53,67,71,11.83,broken clouds
371,Fuyu,CN,2022-04-10 13:45:33,45.1833,124.8167,54.82,25,94,7.23,overcast clouds
372,Urubicha,BO,2022-04-10 13:45:34,-15.3833,-62.95,81.34,81,19,4.79,few clouds
373,Culpeper,US,2022-04-10 13:45:34,38.5004,-77.9664,44.98,54,100,5.99,overcast clouds
374,Kouroussa,GN,2022-04-10 13:45:34,10.65,-9.8833,106.38,17,95,2.75,overcast clouds
375,Poum,NC,2022-04-10 13:45:35,-20.2333,164.0167,79.48,76,44,14.2,scattered clouds
376,Kontagora,NG,2022-04-10 13:45:35,10.3999,5.4695,106.02,18,6,2.62,clear sky
377,Erenhot,CN,2022-04-10 13:45:35,43.6475,111.9767,61.32,13,82,12.24,broken clouds
378,Oktyabrskoye,RU,2022-04-10 13:45:36,43.0645,44.7417,68.14,35,5,17.9,clear sky
379,Enshi,CN,2022-04-10 13:45:36,30.3,109.4833,69.21,66,0,1.74,clear sky
380,Gawler,AU,2022-04-10 13:45:37,-34.6,138.7333,70.21,71,100,4.76,overcast clouds
381,Te Anau,NZ,2022-04-10 13:45:38,-45.4167,167.7167,45.66,88,6,4.76,clear sky
382,Vila,PT,2022-04-10 13:45:38,42.0304,-8.1588,61.68,53,63,14.32,broken clouds
383,Getulio Vargas,UY,2022-04-10 13:45:38,-32.6796,-53.5494,77.2,58,7,11.16,clear sky
384,Lavumisa,SZ,2022-04-10 13:45:39,-27.31,31.892,69.4,78,100,8.46,light rain
385,Doha,QA,2022-04-10 13:43:36,25.2867,51.5333,98.91,43,0,16.11,clear sky
386,Chengannur,IN,2022-04-10 13:45:39,9.3333,76.6333,78.93,88,90,2.91,overcast clouds
387,Locharbriggs,GB,2022-04-10 13:45:39,55.1034,-3.5844,47.43,59,100,6.69,overcast clouds
388,Ostroleka,PL,2022-04-10 13:41:10,53.0862,21.5757,47.93,53,89,16.35,overcast clouds
389,Puerto Ayacucho,VE,2022-04-10 13:45:40,5.6639,-67.6236,84.97,62,100,4.12,overcast clouds
390,Northam,GB,2022-04-10 13:45:40,51.0333,-4.2167,55.65,69,100,16.6,overcast clouds
391,Kawalu,ID,2022-04-10 13:45:40,-7.3817,108.2082,72.9,96,99,2.01,overcast clouds
392,Lagoa,PT,2022-04-10 13:45:41,39.05,-27.9833,54.95,60,100,34.49,overcast clouds
393,Douglas,US,2022-04-10 13:44:52,41.3,-96.167,50.59,46,0,10.36,clear sky
394,Skjervoy,NO,2022-04-10 13:45:41,70.0311,20.9714,37.4,69,37,16.64,scattered clouds
395,Zaoyang,CN,2022-04-10 13:45:42,32.1272,112.7542,71.53,62,0,8.93,clear sky
396,Basco,PH,2022-04-10 13:45:42,20.4487,121.9702,79.16,83,72,19.33,broken clouds
397,Port Hawkesbury,CA,2022-04-10 13:45:42,45.6169,-61.3485,42.91,99,100,5.75,fog
398,Hamilton,US,2022-04-10 13:42:35,39.1834,-84.5333,46.99,67,20,4.61,few clouds
399,Ginir,ET,2022-04-10 13:45:42,7.1333,40.7,72.16,49,28,12.71,scattered clouds
400,Blagoyevo,RU,2022-04-10 13:45:43,63.3667,47.9167,38.61,100,100,11.07,overcast clouds
401,Leningradskiy,RU,2022-04-10 13:41:06,69.3833,178.4167,-16.35,94,37,5.19,scattered clouds
402,Wajir,KE,2022-04-10 13:45:43,1.7471,40.0573,93.85,35,67,11.77,broken clouds
403,Katiola,CI,2022-04-10 13:45:44,8.1333,-5.1,88.43,35,19,3.49,few clouds
404,Beloha,MG,2022-04-10 13:45:44,-25.1667,45.05,77.32,72,100,17.38,overcast clouds
405,Japura,ID,2022-04-10 13:45:44,-0.3167,102.35,75.31,96,56,1.05,broken clouds
406,Camopi,GF,2022-04-10 13:45:44,3.1655,-52.3158,79.02,86,100,4.97,overcast clouds
407,Asosa,ET,2022-04-10 13:45:45,10.0667,34.5333,82.09,32,99,1.32,overcast clouds
408,Benguela,AO,2022-04-10 13:45:45,-12.5763,13.4055,81.16,77,52,10.38,light rain
409,Khandbari,NP,2022-04-10 13:45:45,27.3747,87.2039,67.62,84,22,1.7,few clouds
410,Cravo Norte,CO,2022-04-10 13:45:46,6.3017,-70.2041,90.84,41,98,8.57,overcast clouds
411,Tiarei,PF,2022-04-10 13:45:46,-17.5333,-149.3333,78.82,80,26,15.05,light rain
412,Huarmey,PE,2022-04-10 13:45:46,-10.0681,-78.1522,70.92,82,70,7.83,broken clouds
413,Abalak,RU,2022-04-10 13:45:47,58.1286,68.5944,33.57,94,89,4.54,overcast clouds
414,Teguldet,RU,2022-04-10 13:45:47,57.3064,88.1667,20.62,91,100,4.74,overcast clouds
415,Rio Grande,BR,2022-04-10 13:44:18,-32.035,-52.0986,77.11,74,10,13.85,clear sky
416,Compostela,PH,2022-04-10 13:45:48,7.6731,126.0889,75.78,91,94,2.93,overcast clouds
417,Cabo San Lucas,MX,2022-04-10 13:45:48,22.8909,-109.9124,68.5,76,49,11.99,scattered clouds
418,Fukue,JP,2022-04-10 13:45:48,32.6881,128.8419,65.03,86,100,12.03,overcast clouds
419,Xiongzhou,CN,2022-04-10 13:45:48,25.1167,114.3,71.82,51,6,2.82,clear sky
420,Zhuhai,CN,2022-04-10 13:45:49,22.2769,113.5678,79.86,88,20,8.05,few clouds
421,Roald,NO,2022-04-10 13:45:49,62.5833,6.1333,44.76,70,75,17.27,broken clouds
422,Nhulunbuy,AU,2022-04-10 13:45:50,-12.2333,136.7667,81.21,83,48,4.61,scattered clouds
423,Srednekolymsk,RU,2022-04-10 13:45:50,67.45,153.6833,0.36,97,100,5.64,overcast clouds
424,Riyadh,SA,2022-04-10 13:43:12,24.6877,46.7219,93.34,8,4,5.37,clear sky
425,Arlit,NE,2022-04-10 13:45:50,18.7369,7.3853,107.8,3,3,8.81,clear sky
426,Kenai,US,2022-04-10 13:45:51,60.5544,-151.2583,26.15,73,0,4.61,clear sky
427,Abashiri,JP,2022-04-10 13:45:51,44.0213,144.2697,38.95,79,100,13.94,overcast clouds
428,Kieta,PG,2022-04-10 13:45:51,-6.2167,155.6333,79.16,80,97,0.2,overcast clouds
429,Podgorenskiy,RU,2022-04-10 13:45:52,50.405,39.6429,65.7,48,100,10.96,overcast clouds
430,Asbe Teferi,ET,2022-04-10 13:45:52,9.0833,40.8667,77.81,36,68,6.46,broken clouds
431,Kapuskasing,CA,2022-04-10 13:41:02,49.4169,-82.4331,24.89,86,20,5.75,few clouds
432,Mount Gambier,AU,2022-04-10 13:45:53,-37.8333,140.7667,58.91,82,100,10.36,moderate rain
433,Ngaoundere,CM,2022-04-10 13:45:53,7.3167,13.5833,71.55,72,96,7.92,moderate rain
434,Tiznit,MA,2022-04-10 13:45:53,29.5833,-9.5,83.17,14,9,9.22,clear sky
435,Broome,US,2022-04-10 13:45:53,42.2506,-75.833,38.7,74,100,14.97,overcast clouds
436,Kuryk,KZ,2022-04-10 13:45:54,43.2,51.65,66.96,40,0,7.63,clear sky
437,Foshan,CN,2022-04-10 13:45:54,23.0268,113.1315,77.04,35,0,8.88,clear sky
438,Bogalusa,US,2022-04-10 13:45:54,30.791,-89.8487,68.76,88,0,4.61,clear sky
439,Talaya,RU,2022-04-10 13:45:55,61.3833,152.75,-23.26,100,69,1.79,broken clouds
440,Sajanan,TN,2022-04-10 13:45:55,37.0573,9.2426,61.72,46,18,12.64,few clouds
441,Kokstad,ZA,2022-04-10 13:45:55,-30.5472,29.4241,51.87,97,100,3.96,moderate rain
442,Aberdeen,GB,2022-04-10 13:45:56,57.1437,-2.0981,50.65,59,100,3.44,overcast clouds
443,El Alto,PE,2022-04-10 13:45:56,-4.2714,-81.2147,74.82,65,96,5.48,overcast clouds
444,San Patricio,US,2022-04-10 13:45:56,28.017,-97.5169,73.49,67,0,22.3,clear sky
445,Tezu,IN,2022-04-10 13:45:57,27.9167,96.1667,70.27,86,95,3.47,overcast clouds
446,Talakan,RU,2022-04-10 13:45:57,50.3167,130.3667,36.59,92,92,8.08,overcast clouds
447,Zhigansk,RU,2022-04-10 13:45:57,66.7697,123.3711,4.32,94,6,10.74,clear sky
448,Goderich,CA,2022-04-10 13:45:52,43.7501,-81.7165,36.91,80,100,10.36,overcast clouds
449,Zmiyiv,UA,2022-04-10 13:45:58,49.6966,36.3611,63.46,53,100,5.44,overcast clouds
450,Constitucion,CL,2022-04-10 13:45:58,-35.3333,-72.4167,56.98,58,0,2.46,clear sky
451,General Roca,AR,2022-04-10 13:45:59,-39.0333,-67.5833,59.63,28,18,6.17,few clouds
452,Los Llanos De Aridane,ES,2022-04-10 13:45:59,28.6585,-17.9182,64.15,80,20,6.91,few clouds
453,Las Tunas,CU,2022-04-10 13:46:00,20.9617,-76.9511,78.57,54,60,14.97,broken clouds
454,Virden,US,2022-04-10 13:46:00,39.5009,-89.7679,49.68,62,100,17.22,overcast clouds
455,Kayerkan,RU,2022-04-10 13:46:00,69.3497,87.7602,1.53,84,97,5.23,overcast clouds
456,Oussouye,SN,2022-04-10 13:46:01,12.485,-16.5469,100.58,16,32,8.23,scattered clouds
457,Zhangjiakou,CN,2022-04-10 13:46:01,40.81,114.8794,68.97,25,100,3.51,overcast clouds
458,Ifakara,TZ,2022-04-10 13:46:01,-8.1333,36.6833,84.06,65,91,0.92,overcast clouds
459,Tessalit,ML,2022-04-10 13:46:02,20.1986,1.0114,98.91,4,0,13.24,clear sky
460,Ogembo,KE,2022-04-10 13:46:02,-0.7984,34.7253,79.39,39,82,1.95,broken clouds
461,Marmaris,TR,2022-04-10 13:46:02,36.855,28.2742,66.15,64,60,6.49,broken clouds
462,Norton,ZW,2022-04-10 13:46:02,-17.8833,30.7,68.49,74,100,3.89,light rain
463,Baykit,RU,2022-04-10 13:46:03,61.67,96.37,25.29,95,100,5.46,overcast clouds
464,Necochea,AR,2022-04-10 13:46:03,-38.5473,-58.7368,67.01,77,100,6.26,overcast clouds
465,Roma,US,2022-04-10 13:46:04,43.2128,-75.4557,37.72,91,100,12.66,light snow
466,Abay,KZ,2022-04-10 13:46:04,49.6311,72.8539,46.78,41,100,12.57,overcast clouds
467,Zhuanghe,CN,2022-04-10 13:46:04,39.7008,122.9911,46.71,92,22,11.83,few clouds
468,Awjilah,LY,2022-04-10 13:46:04,29.1081,21.2869,86.25,13,0,12.01,clear sky
469,Saint Anthony,US,2022-04-10 13:45:52,45.0205,-93.218,45.05,51,0,8.05,clear sky
470,Kurya,RU,2022-04-10 13:46:05,51.6003,82.2888,38.5,67,15,6.91,few clouds
471,Culebra,PR,2022-04-10 13:46:05,18.303,-65.301,82.99,67,36,10.0,scattered clouds
472,Sorong,ID,2022-04-10 13:46:06,-0.8833,131.25,79.66,86,100,7.52,overcast clouds
473,Ovalle,CL,2022-04-10 13:46:06,-30.5983,-71.2003,65.48,54,16,3.67,few clouds
474,Jaypur,IN,2022-04-10 13:46:06,18.85,82.5833,87.21,41,90,7.38,overcast clouds
475,Miranda,CO,2022-04-10 13:45:52,3.2499,-76.2281,68.13,81,100,3.13,overcast clouds
476,Aras,ES,2022-04-10 13:46:07,42.5617,-2.356,64.83,45,20,19.57,few clouds
477,Bacolod,PH,2022-04-10 13:43:49,10.6667,122.95,74.01,94,100,4.27,overcast clouds
478,Fort Nelson,CA,2022-04-10 13:46:07,58.8053,-122.7002,22.59,63,20,8.05,few clouds
479,Borovichi,RU,2022-04-10 13:46:07,58.3878,33.9155,44.76,63,66,10.47,broken clouds
480,Marsa Matruh,EG,2022-04-10 13:46:08,31.3525,27.2453,68.2,64,0,9.22,clear sky
481,Richards Bay,ZA,2022-04-10 13:46:08,-28.783,32.0377,70.52,76,100,9.35,light rain
482,Camana,PE,2022-04-10 13:46:08,-16.6228,-72.7111,71.42,69,34,10.31,scattered clouds
483,Saquena,PE,2022-04-10 13:46:09,-4.6667,-73.5167,76.19,94,100,2.62,overcast clouds
484,Seabra,BR,2022-04-10 13:46:09,-12.4186,-41.7703,87.89,22,5,5.75,clear sky
485,Quelimane,MZ,2022-04-10 13:46:09,-17.8786,36.8883,78.75,78,75,5.99,broken clouds
486,Busia,UG,2022-04-10 13:46:10,0.4544,34.0758,86.25,36,85,10.22,overcast clouds
487,Verkhnevilyuysk,RU,2022-04-10 13:46:10,63.4453,120.3167,6.67,99,48,2.8,scattered clouds
488,Polunochnoye,RU,2022-04-10 13:46:10,60.8697,60.4153,37.96,98,100,8.88,overcast clouds
489,Teguise,ES,2022-04-10 13:46:11,29.0605,-13.564,66.42,68,20,4.61,few clouds
490,Colac,AU,2022-04-10 13:46:11,-38.3333,143.5833,61.18,87,100,6.49,overcast clouds
491,Hasaki,JP,2022-04-10 13:46:11,35.7333,140.8333,59.29,82,3,13.18,clear sky
492,Yulara,AU,2022-04-10 13:46:12,-25.2406,130.9889,66.04,26,0,0.0,clear sky
493,Innisfail,AU,2022-04-10 13:46:12,-17.5333,146.0333,77.18,87,90,2.82,overcast clouds
494,Noumea,NC,2022-04-10 13:46:12,-22.2763,166.4572,80.01,99,100,11.41,overcast clouds
495,Sao Borja,BR,2022-04-10 13:46:13,-28.6606,-56.0044,73.99,78,100,8.25,moderate rain
496,Bestobe,KZ,2022-04-10 13:46:13,52.4994,73.0975,44.8,45,5,10.2,clear sky
497,Taltal,CL,2022-04-10 13:45:30,-25.4,-70.4833,65.08,68,1,5.12,clear sky
498,Moron,AR,2022-04-10 13:46:13,-34.6534,-58.6198,75.94,76,0,7.94,clear sky
499,Plouzane,FR,2022-04-10 13:46:14,48.3833,-4.6167,55.72,50,0,20.71,clear sky
500,Manaia,NZ,2022-04-10 13:46:14,-39.55,174.1333,52.09,89,12,6.35,few clouds
501,Mama,RU,2022-04-10 13:46:14,58.3106,112.8986,15.53,92,82,2.46,broken clouds
502,Gotsu,JP,2022-04-10 13:46:14,35.0,132.2167,58.35,79,100,3.29,overcast clouds
503,Belinskiy,RU,2022-04-10 13:46:15,52.9647,43.4165,59.65,59,100,11.07,overcast clouds
504,Montrose,US,2022-04-10 13:46:15,38.4166,-108.2673,27.97,35,100,7.31,overcast clouds
505,Praia Da Vitoria,PT,2022-04-10 13:46:16,38.7333,-27.0667,59.25,72,40,29.68,scattered clouds
506,Alyangula,AU,2022-04-10 13:46:16,-13.8483,136.4192,76.87,88,64,0.0,broken clouds
507,Anadyr,RU,2022-04-10 13:46:16,64.75,177.4833,30.7,80,20,11.18,few clouds
508,Tanggul,ID,2022-04-10 13:46:17,-8.1645,113.4525,75.83,91,48,1.63,scattered clouds
509,Mahanoro,MG,2022-04-10 13:46:17,-19.9,48.8,78.48,74,27,7.18,scattered clouds
510,Eravur,LK,2022-04-10 13:46:17,7.7733,81.6095,80.6,79,93,1.86,moderate rain
511,Sarangani,PH,2022-04-10 13:46:18,5.4033,125.4636,82.11,78,86,20.4,overcast clouds
512,Nokaneng,BW,2022-04-10 13:46:18,-19.6667,22.2667,84.88,37,41,4.36,scattered clouds
513,Fergus Falls,US,2022-04-10 13:46:18,46.283,-96.0776,39.27,78,40,8.05,light rain
514,Jiuquan,CN,2022-04-10 13:46:19,39.7432,98.5174,50.14,31,97,10.22,overcast clouds
515,Minudasht,IR,2022-04-10 13:46:19,37.2289,55.3747,56.77,88,100,0.0,overcast clouds
516,Bayir,TR,2022-04-10 13:46:19,37.2687,28.2167,68.52,40,44,12.95,scattered clouds
517,Qurayyat,SA,2022-04-10 13:46:20,31.3318,37.3428,91.58,8,0,11.5,clear sky
518,Gweta,BW,2022-04-10 13:46:20,-20.1833,25.2333,76.73,55,97,7.4,light rain
519,Ocos,GT,2022-04-10 13:46:20,14.5094,-92.1933,83.19,62,13,2.46,few clouds
520,Bima,ID,2022-04-10 13:46:20,-8.4667,118.7167,75.47,93,95,2.89,overcast clouds
521,Sept-Iles,CA,2022-04-10 13:46:02,50.2001,-66.3821,37.06,87,100,2.3,overcast clouds
522,Presidencia Roque Saenz Pena,AR,2022-04-10 13:46:21,-26.7852,-60.4388,77.41,82,60,9.13,broken clouds
523,The Valley,AI,2022-04-10 13:46:21,18.217,-63.0578,82.26,74,40,13.8,scattered clouds
524,Lompoc,US,2022-04-10 13:46:21,34.6391,-120.4579,55.78,94,0,1.01,mist
525,Luderitz,NA,2022-04-10 13:46:22,-26.6481,15.1594,77.68,47,0,15.86,clear sky
526,Dubno,UA,2022-04-10 13:46:22,50.4169,25.7343,48.88,46,100,11.3,overcast clouds
527,Weinan,CN,2022-04-10 13:46:22,34.5036,109.5089,73.11,32,0,6.15,clear sky
528,Gao,ML,2022-04-10 13:46:23,16.6362,1.637,106.5,5,3,6.22,clear sky
529,Meulaboh,ID,2022-04-10 13:46:23,4.1363,96.1285,79.38,84,97,2.01,heavy intensity rain
530,Dinar,TR,2022-04-10 13:46:23,38.065,30.1656,69.76,25,9,15.79,clear sky
531,Acarau,BR,2022-04-10 13:46:24,-2.8856,-40.12,80.6,80,98,8.75,overcast clouds
532,Angoche,MZ,2022-04-10 13:46:24,-16.2325,39.9086,81.12,79,35,10.27,light rain
533,Lac Du Bonnet,CA,2022-04-10 13:44:05,50.2536,-96.0612,36.28,85,93,3.6,overcast clouds
534,Sao Gabriel Da Cachoeira,BR,2022-04-10 13:46:24,-0.1303,-67.0892,83.86,68,100,2.35,overcast clouds
535,Pachino,IT,2022-04-10 13:46:25,36.7186,15.0907,62.83,53,0,22.86,clear sky
536,Imuris,MX,2022-04-10 13:46:25,30.7833,-110.8667,61.56,48,1,4.36,clear sky
537,Lakefield,US,2022-04-10 13:46:25,43.6775,-95.1717,42.85,64,0,16.11,clear sky
538,Bac Lieu,VN,2022-04-10 13:46:26,9.285,105.7244,80.64,78,35,7.07,scattered clouds
539,Puerto Vallarta,MX,2022-04-10 13:42:52,20.6204,-105.2307,71.91,92,1,1.07,clear sky
540,New Castle,US,2022-04-10 13:46:26,41.0037,-80.347,38.88,73,100,8.05,overcast clouds
541,Bismil,TR,2022-04-10 13:46:26,37.8486,40.6658,74.93,48,98,3.85,overcast clouds
542,Ystad,SE,2022-04-10 13:46:27,55.4297,13.8204,47.37,55,65,22.84,broken clouds
543,Ayan,RU,2022-04-10 13:46:27,56.45,138.1667,22.15,77,9,5.44,clear sky
544,Nishihara,JP,2022-04-10 13:46:27,26.1842,127.7558,73.06,94,75,12.66,broken clouds
545,Hay River,CA,2022-04-10 13:46:28,60.8156,-115.7999,17.58,79,75,14.97,light snow
546,Khartoum,SD,2022-04-10 13:46:28,15.5518,32.5324,111.02,8,5,6.13,clear sky
547,Soe,ID,2022-04-10 13:46:28,-9.8607,124.284,64.26,92,3,3.67,clear sky
548,Havelock,US,2022-04-10 13:46:29,34.8791,-76.9013,50.99,54,0,10.0,clear sky
549,Walvis Bay,NA,2022-04-10 13:46:29,-22.9575,14.5053,72.55,53,0,9.22,clear sky
550,Mae Ramat,TH,2022-04-10 13:46:29,16.984,98.5166,80.85,67,18,1.79,few clouds
551,Sioux Lookout,CA,2022-04-10 13:42:44,50.1001,-91.917,37.47,44,75,4.61,broken clouds
552,San Jeronimo,PE,2022-04-10 13:46:30,-11.9472,-75.2829,50.92,79,100,0.69,overcast clouds
553,Shetpe,KZ,2022-04-10 13:46:30,44.1667,52.1167,66.07,37,42,7.27,scattered clouds
554,Fasa,IR,2022-04-10 13:46:31,28.9383,53.6482,85.24,4,0,13.8,clear sky
555,Novoagansk,RU,2022-04-10 13:46:31,61.9449,76.6625,19.45,90,100,4.16,overcast clouds
556,Stromness,GB,2022-04-10 13:46:31,58.965,-3.296,40.96,82,93,5.01,overcast clouds
557,Aykhal,RU,2022-04-10 13:46:32,66.0,111.5,8.62,100,40,2.93,scattered clouds
558,Khandyga,RU,2022-04-10 13:46:32,62.6667,135.6,-0.49,98,37,2.1,scattered clouds
559,Aswan,EG,2022-04-10 13:46:32,24.0934,32.907,106.9,8,0,6.91,clear sky
560,Puerto Escondido,MX,2022-04-10 13:46:33,15.85,-97.0667,83.55,50,16,0.11,few clouds
561,Dwarka,IN,2022-04-10 13:46:33,22.2394,68.9678,82.35,73,1,10.89,clear sky
562,Samarai,PG,2022-04-10 13:46:33,-10.6167,150.6667,83.97,76,57,16.15,broken clouds
563,Springdale,US,2022-04-10 13:44:33,36.1867,-94.1288,65.57,50,0,24.16,clear sky
564,Gwalior,IN,2022-04-10 13:46:33,26.2236,78.1792,96.62,8,0,7.81,clear sky
565,Saint-Joseph,RE,2022-04-10 13:46:34,-21.3667,55.6167,79.18,81,35,15.32,light rain
566,Beringovskiy,RU,2022-04-10 13:46:34,63.05,179.3167,25.72,92,39,14.56,scattered clouds
567,Pasighat,IN,2022-04-10 13:46:35,28.0667,95.3333,73.04,83,100,3.56,overcast clouds
568,San Cristobal,VE,2022-04-10 13:45:02,7.7669,-72.225,68.18,42,100,6.87,overcast clouds
569,Mackay,AU,2022-04-10 13:46:35,-21.15,149.2,75.69,94,100,6.91,overcast clouds
570,Zambezi,ZM,2022-04-10 13:46:35,-13.5432,23.1047,65.07,95,100,3.91,light rain
571,Atherton,GB,2022-04-10 13:46:36,53.5237,-2.4935,56.05,41,100,4.0,overcast clouds
572,Matasari,RO,2022-04-10 13:46:36,44.85,23.0833,49.42,57,100,2.51,overcast clouds
573,Laguna,US,2022-04-10 13:46:36,38.421,-121.4238,55.53,29,0,16.11,clear sky
574,Murray Bridge,AU,2022-04-10 13:45:52,-35.1167,139.2667,62.13,85,100,12.19,overcast clouds
575,Sfantu Gheorghe,RO,2022-04-10 13:42:14,45.8667,25.7833,38.93,99,100,2.1,overcast clouds
576,Haapiti,PF,2022-04-10 13:45:57,-17.5667,-149.8667,78.53,76,16,14.56,light rain
577,College,US,2022-04-10 13:46:37,64.8569,-147.8028,12.79,61,75,4.61,broken clouds
578,Babushkin,RU,2022-04-10 13:46:37,51.7122,105.8647,27.72,87,83,8.68,broken clouds
579,Ponta Delgada,PT,2022-04-10 13:46:30,37.7333,-25.6667,56.12,71,40,24.16,scattered clouds
580,Westport,US,2022-04-10 13:41:48,41.1415,-73.3579,48.04,60,100,8.99,overcast clouds
581,Eureka,US,2022-04-10 13:45:59,40.8021,-124.1637,43.41,86,88,1.99,overcast clouds
582,Senno,RU,2022-04-10 13:46:38,59.5336,33.9167,45.27,80,49,9.84,scattered clouds
583,Kushiro,JP,2022-04-10 13:46:38,42.975,144.3747,37.74,86,75,5.84,light rain
584,Salalah,OM,2022-04-10 13:46:38,17.0151,54.0924,86.09,70,0,11.5,clear sky
585,Medea,DZ,2022-04-10 13:46:39,36.2642,2.7539,68.61,38,56,7.47,broken clouds
586,San Carlos De Bariloche,AR,2022-04-10 13:46:39,-41.1456,-71.3082,37.15,81,40,3.44,scattered clouds
587,Sakakah,SA,2022-04-10 13:46:39,29.9697,40.2064,92.77,9,100,10.71,overcast clouds
588,Itarema,BR,2022-04-10 13:46:40,-2.9248,-39.9167,81.57,78,95,8.68,light rain
589,Plettenberg Bay,ZA,2022-04-10 13:46:40,-34.0527,23.3716,72.32,67,75,20.38,broken clouds
590,Tanda,IN,2022-04-10 13:46:40,26.55,82.65,93.0,13,0,4.41,clear sky
591,Tecoanapa,MX,2022-04-10 13:46:41,16.5167,-98.75,80.87,59,17,2.8,few clouds
592,Veinticinco De Mayo,AR,2022-04-10 13:46:41,-35.4323,-60.1727,76.41,56,10,10.94,clear sky
593,Linhares,BR,2022-04-10 13:46:41,-19.3911,-40.0722,88.81,54,72,4.72,light rain
594,Florenville,BE,2022-04-10 13:46:42,49.6998,5.3074,51.53,50,93,3.89,overcast clouds
595,Tres Lagoas,BR,2022-04-10 13:46:42,-20.7511,-51.6783,88.07,50,4,5.5,clear sky
596,Powell River,CA,2022-04-10 13:46:42,49.8496,-124.5361,41.07,93,100,4.61,overcast clouds
597,Bourail,NC,2022-04-10 13:46:43,-21.5667,165.4833,74.07,91,99,3.02,overcast clouds
598,Estelle,US,2022-04-10 13:46:43,29.8458,-90.1067,69.8,68,0,6.91,clear sky
599,Ambilobe,MG,2022-04-10 13:46:43,-13.2,49.05,80.89,84,51,3.2,light rain
600,Atar,MR,2022-04-10 13:46:44,20.5169,-13.0499,99.21,3,0,8.08,clear sky
601,Tall Kayf,TR,2022-04-10 13:46:44,37.0833,41.0667,73.74,34,92,4.29,overcast clouds
602,Mzimba,MW,2022-04-10 13:46:44,-11.9,33.6,70.9,79,98,6.51,light rain
603,Morros,BR,2022-04-10 13:46:45,-9.4467,-46.3003,90.46,42,10,2.26,clear sky
604,Natal,BR,2022-04-10 13:43:35,-5.795,-35.2094,86.22,70,75,14.97,broken clouds
605,Lethem,GY,2022-04-10 13:46:45,3.3803,-59.7968,78.71,75,100,10.04,overcast clouds
606,Charyshskoye,RU,2022-04-10 13:46:45,51.3978,83.5598,34.77,85,85,3.94,overcast clouds
607,Nelson Bay,AU,2022-04-10 13:46:46,-32.7167,152.15,66.0,95,6,4.23,clear sky
608,Zaysan,KZ,2022-04-10 13:46:46,47.4667,84.8667,43.18,36,63,4.41,broken clouds
609,Sur,OM,2022-04-10 13:46:46,22.5667,59.5289,93.11,30,100,4.05,overcast clouds
610,Pangnirtung,CA,2022-04-10 13:46:47,66.1451,-65.7125,24.03,88,100,5.93,overcast clouds
611,Sorsk,RU,2022-04-10 13:46:47,54.0033,90.2467,28.69,73,100,9.6,overcast clouds
612,Olinda,BR,2022-04-10 13:46:47,-8.0089,-34.8553,82.13,83,75,9.22,broken clouds
613,Jumla,NP,2022-04-10 13:46:48,29.2747,82.1838,51.93,62,23,6.06,few clouds
614,Harper,LR,2022-04-10 13:46:48,4.375,-7.7169,85.28,67,90,7.63,overcast clouds
615,Port Hueneme,US,2022-04-10 13:46:48,34.1478,-119.1951,58.53,91,100,0.0,mist
616,Charlestown,AU,2022-04-10 13:46:49,-32.95,151.6667,65.73,94,1,1.99,clear sky
617,Clyde River,CA,2022-04-10 13:46:49,70.4692,-68.5914,-1.97,92,75,2.3,light snow
618,Tibacuy,CO,2022-04-10 13:46:49,4.3511,-72.4564,83.32,69,84,2.42,broken clouds
619,Inirida,CO,2022-04-10 13:46:50,3.8653,-67.9239,79.45,79,96,3.18,overcast clouds
620,Emerald,AU,2022-04-10 13:46:50,-23.5333,148.1667,75.34,78,0,6.91,clear sky
621,Vieux-Habitants,GP,2022-04-10 13:46:50,16.0589,-61.7659,81.97,71,87,12.64,overcast clouds
622,Mildura,AU,2022-04-10 13:46:51,-34.2,142.15,67.96,52,49,4.61,scattered clouds
623,Yendi,GH,2022-04-10 13:46:51,9.4427,-0.0099,101.7,25,100,5.37,overcast clouds
624,Ulladulla,AU,2022-04-10 13:46:51,-35.35,150.4667,63.5,85,6,4.65,clear sky
625,Kedougou,SN,2022-04-10 13:46:52,12.5579,-12.1743,109.26,8,33,4.14,scattered clouds
626,Teyateyaneng,LS,2022-04-10 13:46:52,-29.1472,27.7489,51.08,80,100,11.48,overcast clouds
627,Midland,US,2022-04-10 13:45:52,31.9974,-102.0779,67.91,42,0,12.66,clear sky
628,Diego De Almagro,CL,2022-04-10 13:46:52,-26.3667,-70.05,68.0,31,0,4.21,clear sky
629,Virginia Beach,US,2022-04-10 13:44:09,36.8529,-75.978,51.04,59,8,3.0,clear sky
630,Nkhata Bay,MW,2022-04-10 13:46:53,-11.6066,34.2907,78.04,73,45,8.14,scattered clouds
631,Neverkino,RU,2022-04-10 13:46:53,52.7854,46.7417,55.08,70,14,5.17,few clouds
632,Mega,ET,2022-04-10 13:46:54,4.05,38.3,70.43,56,98,14.32,overcast clouds
633,Dong Hoi,VN,2022-04-10 13:46:54,17.4833,106.6,71.76,93,5,7.14,clear sky
634,Tuensang,IN,2022-04-10 13:46:54,26.2833,94.8333,63.43,93,52,4.21,broken clouds
635,Bialystok,PL,2022-04-10 13:45:19,53.1333,23.15,46.96,48,80,13.47,broken clouds
636,Ahar,IR,2022-04-10 13:46:55,38.4774,47.0699,64.94,32,0,8.68,clear sky
637,Magnitka,RU,2022-04-10 13:46:55,55.3475,59.6961,43.52,89,98,8.97,overcast clouds
638,Vaitape,PF,2022-04-10 13:46:55,-16.5167,-151.75,82.04,73,25,15.66,scattered clouds
639,Mananara,MG,2022-04-10 13:46:56,-16.1667,49.7667,77.88,85,39,9.75,light rain
640,Mombasa,KE,2022-04-10 13:46:56,-4.0547,39.6636,86.5,60,25,12.84,scattered clouds
641,Clovis,US,2022-04-10 13:46:56,36.8252,-119.7029,57.67,44,40,4.61,scattered clouds
642,Elkridge,US,2022-04-10 13:46:24,39.2126,-76.7136,47.32,64,75,16.11,broken clouds
643,Mount Vernon,US,2022-04-10 13:46:57,40.9126,-73.8371,47.95,52,75,14.97,broken clouds
644,Vakhrushev,RU,2022-04-10 13:46:57,48.9833,142.9667,29.95,89,100,7.81,snow
645,Sipovo,BA,2022-04-10 13:46:57,44.2814,17.0839,41.63,89,100,12.37,overcast clouds
646,Kudahuvadhoo,MV,2022-04-10 13:42:49,2.6708,72.8944,84.92,66,11,11.05,few clouds
647,Toktogul,KG,2022-04-10 13:46:58,41.8708,72.9402,63.21,61,82,2.59,broken clouds
648,Manggar,ID,2022-04-10 13:46:58,-2.8833,108.2667,80.37,80,100,1.95,overcast clouds
649,Vao,NC,2022-04-10 13:46:58,-22.6667,167.4833,77.27,84,72,20.29,broken clouds
650,Phangnga,TH,2022-04-10 13:46:59,8.4509,98.5298,82.44,92,83,3.98,broken clouds
651,Cabaiguan,CU,2022-04-10 13:46:59,22.0789,-79.4992,75.22,51,37,13.91,scattered clouds
652,Trelew,AR,2022-04-10 13:47:00,-43.249,-65.3051,58.46,49,0,28.34,clear sky
653,Goure,NE,2022-04-10 13:47:00,13.9835,10.2704,105.03,6,97,2.21,overcast clouds
654,La Ronge,CA,2022-04-10 13:47:00,55.1001,-105.2842,23.25,74,75,9.22,broken clouds
655,Dalvik,IS,2022-04-10 13:47:01,65.9702,-18.5286,35.53,75,100,2.04,overcast clouds
656,Kem,RU,2022-04-10 13:47:01,64.9555,34.5793,35.58,87,98,10.16,overcast clouds
657,Kamarion,GR,2022-04-10 13:47:01,36.8,25.8167,64.74,76,2,24.99,clear sky
658,Coihaique,CL,2022-04-10 13:47:01,-45.5752,-72.0662,49.95,76,20,8.05,few clouds
659,Aguimes,ES,2022-04-10 13:47:02,27.9054,-15.4461,65.66,60,20,9.22,few clouds
660,Sao Sebastiao,BR,2022-04-10 13:47:02,-23.76,-45.4097,79.45,74,79,5.28,broken clouds
661,Newton,US,2022-04-10 13:44:35,42.337,-71.2092,49.89,67,0,14.97,clear sky
662,Gambela,ET,2022-04-10 13:47:02,8.25,34.5833,96.62,26,80,6.87,broken clouds
663,Marawi,PH,2022-04-10 13:47:03,7.9986,124.2928,68.79,94,100,4.68,overcast clouds
664,Buala,SB,2022-04-10 13:47:03,-8.145,159.5921,79.38,82,17,4.07,light rain
665,Santa Rosa,PH,2022-04-10 13:47:04,14.3122,121.1114,82.38,78,100,7.45,overcast clouds
666,Poninka,UA,2022-04-10 13:47:04,50.1849,27.5363,45.93,54,100,8.93,overcast clouds
667,Cockburn Town,TC,2022-04-10 13:47:04,21.4612,-71.1419,78.58,77,57,13.6,broken clouds
668,Erzin,TR,2022-04-10 13:47:04,36.9559,36.2,68.22,51,12,5.68,few clouds
669,Petatlan,MX,2022-04-10 13:47:05,17.5167,-101.2667,80.64,48,12,0.47,few clouds
670,Bend,US,2022-04-10 13:46:34,44.0582,-121.3153,34.27,80,0,11.5,clear sky
671,Isangel,VU,2022-04-10 13:47:05,-19.55,169.2667,80.06,82,21,8.75,few clouds
672,Sulangan,PH,2022-04-10 13:47:05,11.1373,123.7228,77.83,94,100,30.71,heavy intensity rain
673,Surenavan,AM,2022-04-10 13:47:06,39.75,44.8,68.67,26,80,5.21,broken clouds
